[
  {
    "label": "Warszawa",
    "lat": "52.2300",
    "lng": "21.0111",
    "country": "Poland",
    "iso2": "PL",
    "admin_name": "Mazowieckie",
    "capital": "primary",
    "population": "1860281",
    "population_proper": "1860281"
  },
  {
    "label": "Kraków",
    "lat": "50.0614",
    "lng": "19.9372",
    "country": "Poland",
    "iso2": "PL",
    "admin_name": "Małopolskie",
    "capital": "admin",
    "population": "800653",
    "population_proper": "800653"
  },
  {
    "label": "Łódź",
    "lat": "51.7769",
    "lng": "19.4547",
    "country": "Poland",
    "iso2": "PL",
    "admin_name": "Łódzkie",
    "capital": "admin",
    "population": "690422",
    "population_proper": "670642"
  },
  {
    "label": "Wrocław",
    "lat": "51.1100",
    "lng": "17.0325",
    "country": "Poland",
    "iso2": "PL",
    "admin_name": "Dolnośląskie",
    "capital": "admin",
    "population": "672929",
    "population_proper": "672929"
  },
  {
    "label": "Poznań",
    "lat": "52.4083",
    "lng": "16.9336",
    "country": "Poland",
    "iso2": "PL",
    "admin_name": "Wielkopolskie",
    "capital": "admin",
    "population": "546859",
    "population_proper": "546859"
  },
  {
    "label": "Gdańsk",
    "lat": "54.3475",
    "lng": "18.6453",
    "country": "Poland",
    "iso2": "PL",
    "admin_name": "Pomorskie",
    "capital": "admin",
    "population": "486022",
    "population_proper": "486022"
  },
  {
    "label": "Szczecin",
    "lat": "53.4325",
    "lng": "14.5481",
    "country": "Poland",
    "iso2": "PL",
    "admin_name": "Zachodniopomorskie",
    "capital": "admin",
    "population": "403833",
    "population_proper": "396168"
  },
  {
    "label": "Bydgoszcz",
    "lat": "53.1219",
    "lng": "18.0003",
    "country": "Poland",
    "iso2": "PL",
    "admin_name": "Kujawsko-Pomorskie",
    "capital": "admin",
    "population": "346739",
    "population_proper": "337666"
  },
  {
    "label": "Lublin",
    "lat": "51.2500",
    "lng": "22.5667",
    "country": "Poland",
    "iso2": "PL",
    "admin_name": "Lubelskie",
    "capital": "admin",
    "population": "339850",
    "population_proper": "334681"
  },
  {
    "label": "Bielsko-Biała",
    "lat": "49.8225",
    "lng": "19.0444",
    "country": "Poland",
    "iso2": "PL",
    "admin_name": "Śląskie",
    "capital": "minor",
    "population": "325000",
    "population_proper": "169089"
  },
  {
    "label": "Białystok",
    "lat": "53.1353",
    "lng": "23.1456",
    "country": "Poland",
    "iso2": "PL",
    "admin_name": "Podlaskie",
    "capital": "admin",
    "population": "297554",
    "population_proper": "294242"
  },
  {
    "label": "Katowice",
    "lat": "50.2667",
    "lng": "19.0167",
    "country": "Poland",
    "iso2": "PL",
    "admin_name": "Śląskie",
    "capital": "admin",
    "population": "285711",
    "population_proper": "285711"
  },
  {
    "label": "Gdynia",
    "lat": "54.5000",
    "lng": "18.5333",
    "country": "Poland",
    "iso2": "PL",
    "admin_name": "Pomorskie",
    "capital": "minor",
    "population": "247672",
    "population_proper": "245222"
  },
  {
    "label": "Częstochowa",
    "lat": "50.8000",
    "lng": "19.1167",
    "country": "Poland",
    "iso2": "PL",
    "admin_name": "Śląskie",
    "capital": "minor",
    "population": "223322",
    "population_proper": "213107"
  },
  {
    "label": "Radom",
    "lat": "51.4036",
    "lng": "21.1567",
    "country": "Poland",
    "iso2": "PL",
    "admin_name": "Mazowieckie",
    "capital": "minor",
    "population": "219703",
    "population_proper": "201601"
  },
  {
    "label": "Zielona Góra",
    "lat": "51.9333",
    "lng": "15.5000",
    "country": "Poland",
    "iso2": "PL",
    "admin_name": "Lubuskie",
    "capital": "admin",
    "population": "216781",
    "population_proper": "140002"
  },
  {
    "label": "Toruń",
    "lat": "53.0222",
    "lng": "18.6111",
    "country": "Poland",
    "iso2": "PL",
    "admin_name": "Kujawsko-Pomorskie",
    "capital": "admin",
    "population": "201447",
    "population_proper": "198273"
  },
  {
    "label": "Rzeszów",
    "lat": "50.0333",
    "lng": "22.0000",
    "country": "Poland",
    "iso2": "PL",
    "admin_name": "Podkarpackie",
    "capital": "admin",
    "population": "195871",
    "population_proper": "195871"
  },
  {
    "label": "Sosnowiec",
    "lat": "50.2833",
    "lng": "19.1333",
    "country": "Poland",
    "iso2": "PL",
    "admin_name": "Śląskie",
    "capital": "minor",
    "population": "193660",
    "population_proper": "193660"
  },
  {
    "label": "Kielce",
    "lat": "50.8742",
    "lng": "20.6333",
    "country": "Poland",
    "iso2": "PL",
    "admin_name": "Świętokrzyskie",
    "capital": "admin",
    "population": "191605",
    "population_proper": "186894"
  },
  {
    "label": "Gliwice",
    "lat": "50.2833",
    "lng": "18.6667",
    "country": "Poland",
    "iso2": "PL",
    "admin_name": "Śląskie",
    "capital": "minor",
    "population": "174016",
    "population_proper": "174016"
  },
  {
    "label": "Olsztyn",
    "lat": "53.7778",
    "lng": "20.4792",
    "country": "Poland",
    "iso2": "PL",
    "admin_name": "Warmińsko-Mazurskie",
    "capital": "admin",
    "population": "173599",
    "population_proper": "170225"
  },
  {
    "label": "Zabrze",
    "lat": "50.3025",
    "lng": "18.7781",
    "country": "Poland",
    "iso2": "PL",
    "admin_name": "Śląskie",
    "capital": "minor",
    "population": "158307",
    "population_proper": "158307"
  },
  {
    "label": "Bytom",
    "lat": "50.3483",
    "lng": "18.9156",
    "country": "Poland",
    "iso2": "PL",
    "admin_name": "Śląskie",
    "capital": "minor",
    "population": "153274",
    "population_proper": "153274"
  },
  {
    "label": "Rybnik",
    "lat": "50.0833",
    "lng": "18.5500",
    "country": "Poland",
    "iso2": "PL",
    "admin_name": "Śląskie",
    "capital": "minor",
    "population": "141000",
    "population_proper": "133772"
  },
  {
    "label": "Ruda Śląska",
    "lat": "50.2628",
    "lng": "18.8536",
    "country": "Poland",
    "iso2": "PL",
    "admin_name": "Śląskie",
    "capital": "minor",
    "population": "133793",
    "population_proper": "133793"
  },
  {
    "label": "Tychy",
    "lat": "50.1236",
    "lng": "18.9867",
    "country": "Poland",
    "iso2": "PL",
    "admin_name": "Śląskie",
    "capital": "minor",
    "population": "129322",
    "population_proper": "124882"
  },
  {
    "label": "Opole",
    "lat": "50.6667",
    "lng": "17.9333",
    "country": "Poland",
    "iso2": "PL",
    "admin_name": "Opolskie",
    "capital": "admin",
    "population": "127792",
    "population_proper": "127387"
  },
  {
    "label": "Gorzów Wielkopolski",
    "lat": "52.7333",
    "lng": "15.2500",
    "country": "Poland",
    "iso2": "PL",
    "admin_name": "Lubuskie",
    "capital": "admin",
    "population": "123341",
    "population_proper": "119964"
  },
  {
    "label": "Płock",
    "lat": "52.5500",
    "lng": "19.7000",
    "country": "Poland",
    "iso2": "PL",
    "admin_name": "Mazowieckie",
    "capital": "minor",
    "population": "120000",
    "population_proper": "114594"
  },
  {
    "label": "Elbląg",
    "lat": "54.1667",
    "lng": "19.4000",
    "country": "Poland",
    "iso2": "PL",
    "admin_name": "Warmińsko-Mazurskie",
    "capital": "minor",
    "population": "119317",
    "population_proper": "115220"
  },
  {
    "label": "Dąbrowa Górnicza",
    "lat": "50.3214",
    "lng": "19.1872",
    "country": "Poland",
    "iso2": "PL",
    "admin_name": "Śląskie",
    "capital": "minor",
    "population": "116930",
    "population_proper": "116930"
  },
  {
    "label": "Wałbrzych",
    "lat": "50.7667",
    "lng": "16.2833",
    "country": "Poland",
    "iso2": "PL",
    "admin_name": "Dolnośląskie",
    "capital": "minor",
    "population": "116069",
    "population_proper": "104401"
  },
  {
    "label": "Tarnów",
    "lat": "50.0125",
    "lng": "20.9886",
    "country": "Poland",
    "iso2": "PL",
    "admin_name": "Małopolskie",
    "capital": "minor",
    "population": "110956",
    "population_proper": "106259"
  },
  {
    "label": "Koszalin",
    "lat": "54.2000",
    "lng": "16.1833",
    "country": "Poland",
    "iso2": "PL",
    "admin_name": "Zachodniopomorskie",
    "capital": "minor",
    "population": "106880",
    "population_proper": "105883"
  },
  {
    "label": "Włocławek",
    "lat": "52.6592",
    "lng": "19.0681",
    "country": "Poland",
    "iso2": "PL",
    "admin_name": "Kujawsko-Pomorskie",
    "capital": "minor",
    "population": "104705",
    "population_proper": "104705"
  },
  {
    "label": "Chorzów",
    "lat": "50.3000",
    "lng": "18.9500",
    "country": "Poland",
    "iso2": "PL",
    "admin_name": "Śląskie",
    "capital": "minor",
    "population": "104193",
    "population_proper": "104193"
  },
  {
    "label": "Kalisz",
    "lat": "51.7575",
    "lng": "18.0800",
    "country": "Poland",
    "iso2": "PL",
    "admin_name": "Wielkopolskie",
    "capital": "minor",
    "population": "99761",
    "population_proper": "95905"
  },
  {
    "label": "Legnica",
    "lat": "51.2083",
    "lng": "16.1603",
    "country": "Poland",
    "iso2": "PL",
    "admin_name": "Dolnośląskie",
    "capital": "minor",
    "population": "99350",
    "population_proper": "94878"
  },
  {
    "label": "Nowy Sącz",
    "lat": "49.6239",
    "lng": "20.6972",
    "country": "Poland",
    "iso2": "PL",
    "admin_name": "Małopolskie",
    "capital": "minor",
    "population": "81281",
    "population_proper": "81281"
  },
  {
    "label": "Inowrocław",
    "lat": "52.7931",
    "lng": "18.2611",
    "country": "Poland",
    "iso2": "PL",
    "admin_name": "Kujawsko-Pomorskie",
    "capital": "minor",
    "population": "72561",
    "population_proper": "69576"
  },
  {
    "label": "Mysłowice",
    "lat": "50.2333",
    "lng": "19.1333",
    "country": "Poland",
    "iso2": "PL",
    "admin_name": "Śląskie",
    "capital": "minor",
    "population": "72553",
    "population_proper": "72553"
  },
  {
    "label": "Ostrowiec Świętokrzyski",
    "lat": "50.9333",
    "lng": "21.4000",
    "country": "Poland",
    "iso2": "PL",
    "admin_name": "Świętokrzyskie",
    "capital": "minor",
    "population": "72001",
    "population_proper": "64796"
  },
  {
    "label": "Ostrów Wielkopolski",
    "lat": "51.6494",
    "lng": "17.8164",
    "country": "Poland",
    "iso2": "PL",
    "admin_name": "Wielkopolskie",
    "capital": "minor",
    "population": "70725",
    "population_proper": "70725"
  },
  {
    "label": "Lubin",
    "lat": "51.4000",
    "lng": "16.2000",
    "country": "Poland",
    "iso2": "PL",
    "admin_name": "Dolnośląskie",
    "capital": "minor",
    "population": "70016",
    "population_proper": "70016"
  },
  {
    "label": "Gniezno",
    "lat": "52.5358",
    "lng": "17.5958",
    "country": "Poland",
    "iso2": "PL",
    "admin_name": "Wielkopolskie",
    "capital": "minor",
    "population": "68217",
    "population_proper": "65452"
  },
  {
    "label": "Stargard Szczeciński",
    "lat": "53.3333",
    "lng": "15.0500",
    "country": "Poland",
    "iso2": "PL",
    "admin_name": "Zachodniopomorskie",
    "capital": "minor",
    "population": "67579",
    "population_proper": "67348"
  },
  {
    "label": "Głogów",
    "lat": "51.6589",
    "lng": "16.0803",
    "country": "Poland",
    "iso2": "PL",
    "admin_name": "Dolnośląskie",
    "capital": "minor",
    "population": "66980",
    "population_proper": "64261"
  },
  {
    "label": "Zamość",
    "lat": "50.7167",
    "lng": "23.2528",
    "country": "Poland",
    "iso2": "PL",
    "admin_name": "Lubelskie",
    "capital": "minor",
    "population": "66234",
    "population_proper": "60148"
  },
  {
    "label": "Pruszków",
    "lat": "52.1667",
    "lng": "20.8000",
    "country": "Poland",
    "iso2": "PL",
    "admin_name": "Mazowieckie",
    "capital": "minor",
    "population": "65283",
    "population_proper": "65283"
  },
  {
    "label": "Pabianice",
    "lat": "51.6500",
    "lng": "19.3833",
    "country": "Poland",
    "iso2": "PL",
    "admin_name": "Łódzkie",
    "capital": "minor",
    "population": "64988",
    "population_proper": "62954"
  },
  {
    "label": "Siemianowice Śląskie",
    "lat": "50.2758",
    "lng": "18.9858",
    "country": "Poland",
    "iso2": "PL",
    "admin_name": "Śląskie",
    "capital": "minor",
    "population": "64676",
    "population_proper": "64676"
  },
  {
    "label": "Leszno",
    "lat": "51.8458",
    "lng": "16.5806",
    "country": "Poland",
    "iso2": "PL",
    "admin_name": "Wielkopolskie",
    "capital": "minor",
    "population": "63505",
    "population_proper": "61791"
  },
  {
    "label": "Ełk",
    "lat": "53.8214",
    "lng": "22.3622",
    "country": "Poland",
    "iso2": "PL",
    "admin_name": "Warmińsko-Mazurskie",
    "capital": "minor",
    "population": "62006",
    "population_proper": "60390"
  },
  {
    "label": "Chełm",
    "lat": "51.1322",
    "lng": "23.4778",
    "country": "Poland",
    "iso2": "PL",
    "admin_name": "Lubelskie",
    "capital": "minor",
    "population": "61588",
    "population_proper": "59546"
  },
  {
    "label": "Mielec",
    "lat": "50.2833",
    "lng": "21.4333",
    "country": "Poland",
    "iso2": "PL",
    "admin_name": "Podkarpackie",
    "capital": "minor",
    "population": "60628",
    "population_proper": "58213"
  },
  {
    "label": "Tomaszów Mazowiecki",
    "lat": "51.5167",
    "lng": "20.0167",
    "country": "Poland",
    "iso2": "PL",
    "admin_name": "Łódzkie",
    "capital": "minor",
    "population": "59388",
    "population_proper": "59388"
  },
  {
    "label": "Bełchatów",
    "lat": "51.3667",
    "lng": "19.3667",
    "country": "Poland",
    "iso2": "PL",
    "admin_name": "Łódzkie",
    "capital": "minor",
    "population": "59025",
    "population_proper": "54338"
  },
  {
    "label": "Tczew",
    "lat": "54.0875",
    "lng": "18.7972",
    "country": "Poland",
    "iso2": "PL",
    "admin_name": "Pomorskie",
    "capital": "minor",
    "population": "57990",
    "population_proper": "57990"
  },
  {
    "label": "Świdnica",
    "lat": "50.8500",
    "lng": "16.4833",
    "country": "Poland",
    "iso2": "PL",
    "admin_name": "Dolnośląskie",
    "capital": "minor",
    "population": "57761",
    "population_proper": "54792"
  },
  {
    "label": "Będzin",
    "lat": "50.3333",
    "lng": "19.1167",
    "country": "Poland",
    "iso2": "PL",
    "admin_name": "Śląskie",
    "capital": "minor",
    "population": "56354",
    "population_proper": "55695"
  },
  {
    "label": "Zgierz",
    "lat": "51.8500",
    "lng": "19.4167",
    "country": "Poland",
    "iso2": "PL",
    "admin_name": "Łódzkie",
    "capital": "minor",
    "population": "55079",
    "population_proper": "55079"
  },
  {
    "label": "Legionowo",
    "lat": "52.4000",
    "lng": "20.8833",
    "country": "Poland",
    "iso2": "PL",
    "admin_name": "Mazowieckie",
    "capital": "minor",
    "population": "53886",
    "population_proper": "53216"
  },
  {
    "label": "Piekary Śląskie",
    "lat": "50.3833",
    "lng": "18.9500",
    "country": "Poland",
    "iso2": "PL",
    "admin_name": "Śląskie",
    "capital": "minor",
    "population": "53017",
    "population_proper": "53017"
  },
  {
    "label": "Ostrołęka",
    "lat": "53.0667",
    "lng": "21.5667",
    "country": "Poland",
    "iso2": "PL",
    "admin_name": "Mazowieckie",
    "capital": "minor",
    "population": "52900",
    "population_proper": "49805"
  },
  {
    "label": "Rumia",
    "lat": "54.5667",
    "lng": "18.4000",
    "country": "Poland",
    "iso2": "PL",
    "admin_name": "Pomorskie",
    "capital": "",
    "population": "51879",
    "population_proper": "51879"
  },
  {
    "label": "Starogard Gdański",
    "lat": "53.9667",
    "lng": "18.5333",
    "country": "Poland",
    "iso2": "PL",
    "admin_name": "Pomorskie",
    "capital": "minor",
    "population": "48690",
    "population_proper": "46373"
  },
  {
    "label": "Starachowice",
    "lat": "51.0500",
    "lng": "21.0667",
    "country": "Poland",
    "iso2": "PL",
    "admin_name": "Świętokrzyskie",
    "capital": "minor",
    "population": "47638",
    "population_proper": "46270"
  },
  {
    "label": "Wejherowo",
    "lat": "54.6000",
    "lng": "18.2500",
    "country": "Poland",
    "iso2": "PL",
    "admin_name": "Pomorskie",
    "capital": "minor",
    "population": "47357",
    "population_proper": "47357"
  },
  {
    "label": "Kołobrzeg",
    "lat": "54.1761",
    "lng": "15.5761",
    "country": "Poland",
    "iso2": "PL",
    "admin_name": "Zachodniopomorskie",
    "capital": "minor",
    "population": "46716",
    "population_proper": "44340"
  },
  {
    "label": "Świętochłowice",
    "lat": "50.2919",
    "lng": "18.9178",
    "country": "Poland",
    "iso2": "PL",
    "admin_name": "Śląskie",
    "capital": "minor",
    "population": "46494",
    "population_proper": "46494"
  },
  {
    "label": "Dębica",
    "lat": "50.0500",
    "lng": "21.4167",
    "country": "Poland",
    "iso2": "PL",
    "admin_name": "Podkarpackie",
    "capital": "minor",
    "population": "44047",
    "population_proper": "44047"
  },
  {
    "label": "Ząbki",
    "lat": "52.2928",
    "lng": "21.1161",
    "country": "Poland",
    "iso2": "PL",
    "admin_name": "Mazowieckie",
    "capital": "",
    "population": "43740",
    "population_proper": "43740"
  },
  {
    "label": "Świdnik",
    "lat": "51.2167",
    "lng": "22.7000",
    "country": "Poland",
    "iso2": "PL",
    "admin_name": "Lubelskie",
    "capital": "minor",
    "population": "42797",
    "population_proper": "37884"
  },
  {
    "label": "Marki",
    "lat": "52.3333",
    "lng": "21.1000",
    "country": "Poland",
    "iso2": "PL",
    "admin_name": "Mazowieckie",
    "capital": "",
    "population": "42252",
    "population_proper": "42252"
  },
  {
    "label": "Mińsk Mazowiecki",
    "lat": "52.1833",
    "lng": "21.5667",
    "country": "Poland",
    "iso2": "PL",
    "admin_name": "Mazowieckie",
    "capital": "minor",
    "population": "40467",
    "population_proper": "40467"
  },
  {
    "label": "Kwidzyn",
    "lat": "53.7358",
    "lng": "18.9308",
    "country": "Poland",
    "iso2": "PL",
    "admin_name": "Pomorskie",
    "capital": "minor",
    "population": "40008",
    "population_proper": "37768"
  },
  {
    "label": "Chojnice",
    "lat": "53.7000",
    "lng": "17.5500",
    "country": "Poland",
    "iso2": "PL",
    "admin_name": "Pomorskie",
    "capital": "minor",
    "population": "39937",
    "population_proper": "39275"
  },
  {
    "label": "Zduńska Wola",
    "lat": "51.6000",
    "lng": "18.9667",
    "country": "Poland",
    "iso2": "PL",
    "admin_name": "Łódzkie",
    "capital": "minor",
    "population": "39846",
    "population_proper": "39846"
  },
  {
    "label": "Nowa Sól",
    "lat": "51.8000",
    "lng": "15.7167",
    "country": "Poland",
    "iso2": "PL",
    "admin_name": "Lubuskie",
    "capital": "minor",
    "population": "39721",
    "population_proper": "36843"
  },
  {
    "label": "Bolesławiec",
    "lat": "51.2667",
    "lng": "15.5667",
    "country": "Poland",
    "iso2": "PL",
    "admin_name": "Dolnośląskie",
    "capital": "minor",
    "population": "39412",
    "population_proper": "37559"
  },
  {
    "label": "Żyrardów",
    "lat": "52.0500",
    "lng": "20.4333",
    "country": "Poland",
    "iso2": "PL",
    "admin_name": "Mazowieckie",
    "capital": "minor",
    "population": "39374",
    "population_proper": "39374"
  },
  {
    "label": "Oświęcim",
    "lat": "50.0381",
    "lng": "19.2214",
    "country": "Poland",
    "iso2": "PL",
    "admin_name": "Małopolskie",
    "capital": "minor",
    "population": "39057",
    "population_proper": "36956"
  },
  {
    "label": "Malbork",
    "lat": "54.0333",
    "lng": "19.0333",
    "country": "Poland",
    "iso2": "PL",
    "admin_name": "Pomorskie",
    "capital": "minor",
    "population": "38895",
    "population_proper": "37635"
  },
  {
    "label": "Żary",
    "lat": "51.6333",
    "lng": "15.1333",
    "country": "Poland",
    "iso2": "PL",
    "admin_name": "Lubuskie",
    "capital": "minor",
    "population": "37502",
    "population_proper": "36004"
  },
  {
    "label": "Sopot",
    "lat": "54.4500",
    "lng": "18.5667",
    "country": "Poland",
    "iso2": "PL",
    "admin_name": "Pomorskie",
    "capital": "minor",
    "population": "37457",
    "population_proper": "32962"
  },
  {
    "label": "Knurów",
    "lat": "50.2167",
    "lng": "18.6833",
    "country": "Poland",
    "iso2": "PL",
    "admin_name": "Śląskie",
    "capital": "",
    "population": "36498",
    "population_proper": "36498"
  },
  {
    "label": "Wołomin",
    "lat": "52.3500",
    "lng": "21.2500",
    "country": "Poland",
    "iso2": "PL",
    "admin_name": "Mazowieckie",
    "capital": "minor",
    "population": "36311",
    "population_proper": "36311"
  },
  {
    "label": "Brzeg",
    "lat": "50.8667",
    "lng": "17.4833",
    "country": "Poland",
    "iso2": "PL",
    "admin_name": "Opolskie",
    "capital": "minor",
    "population": "35890",
    "population_proper": "34492"
  },
  {
    "label": "Oleśnica",
    "lat": "51.2000",
    "lng": "17.3833",
    "country": "Poland",
    "iso2": "PL",
    "admin_name": "Dolnośląskie",
    "capital": "minor",
    "population": "35856",
    "population_proper": "35856"
  },
  {
    "label": "Lębork",
    "lat": "54.5500",
    "lng": "17.7500",
    "country": "Poland",
    "iso2": "PL",
    "admin_name": "Pomorskie",
    "capital": "minor",
    "population": "35374",
    "population_proper": "34500"
  },
  {
    "label": "Czechowice-Dziedzice",
    "lat": "49.9131",
    "lng": "19.0064",
    "country": "Poland",
    "iso2": "PL",
    "admin_name": "Śląskie",
    "capital": "",
    "population": "35261",
    "population_proper": "35261"
  },
  {
    "label": "Cieszyn",
    "lat": "49.7500",
    "lng": "18.6333",
    "country": "Poland",
    "iso2": "PL",
    "admin_name": "Śląskie",
    "capital": "minor",
    "population": "34513",
    "population_proper": "33958"
  },
  {
    "label": "Sochaczew",
    "lat": "52.2333",
    "lng": "20.2333",
    "country": "Poland",
    "iso2": "PL",
    "admin_name": "Mazowieckie",
    "capital": "minor",
    "population": "34439",
    "population_proper": "34439"
  },
  {
    "label": "Kraśnik",
    "lat": "50.9167",
    "lng": "22.2167",
    "country": "Poland",
    "iso2": "PL",
    "admin_name": "Lubelskie",
    "capital": "minor",
    "population": "34230",
    "population_proper": "32593"
  },
  {
    "label": "Iława",
    "lat": "53.5964",
    "lng": "19.5656",
    "country": "Poland",
    "iso2": "PL",
    "admin_name": "Warmińsko-Mazurskie",
    "capital": "minor",
    "population": "33322",
    "population_proper": "32664"
  },
  {
    "label": "Oława",
    "lat": "50.9333",
    "lng": "17.3000",
    "country": "Poland",
    "iso2": "PL",
    "admin_name": "Dolnośląskie",
    "capital": "minor",
    "population": "33268",
    "population_proper": "33268"
  },
  {
    "label": "Dzierżoniów",
    "lat": "50.7281",
    "lng": "16.6511",
    "country": "Poland",
    "iso2": "PL",
    "admin_name": "Dolnośląskie",
    "capital": "minor",
    "population": "33137",
    "population_proper": "31866"
  },
  {
    "label": "Luboń",
    "lat": "52.3333",
    "lng": "16.8833",
    "country": "Poland",
    "iso2": "PL",
    "admin_name": "Wielkopolskie",
    "capital": "",
    "population": "33024",
    "population_proper": "33024"
  },
  {
    "label": "Ostróda",
    "lat": "53.7000",
    "lng": "19.9667",
    "country": "Poland",
    "iso2": "PL",
    "admin_name": "Warmińsko-Mazurskie",
    "capital": "minor",
    "population": "32052",
    "population_proper": "32052"
  },
  {
    "label": "Pruszcz Gdański",
    "lat": "54.2667",
    "lng": "18.6333",
    "country": "Poland",
    "iso2": "PL",
    "admin_name": "Pomorskie",
    "capital": "minor",
    "population": "31582",
    "population_proper": "31582"
  },
  {
    "label": "Zgorzelec",
    "lat": "51.1500",
    "lng": "15.0083",
    "country": "Poland",
    "iso2": "PL",
    "admin_name": "Dolnośląskie",
    "capital": "minor",
    "population": "31359",
    "population_proper": "29966"
  },
  {
    "label": "Czeladź",
    "lat": "50.3333",
    "lng": "19.0833",
    "country": "Poland",
    "iso2": "PL",
    "admin_name": "Śląskie",
    "capital": "",
    "population": "30681",
    "population_proper": "30681"
  },
  {
    "label": "Łowicz",
    "lat": "52.1000",
    "lng": "19.9333",
    "country": "Poland",
    "iso2": "PL",
    "admin_name": "Łódzkie",
    "capital": "minor",
    "population": "30383",
    "population_proper": "26928"
  },
  {
    "label": "Rury",
    "lat": "51.2386",
    "lng": "22.5164",
    "country": "Poland",
    "iso2": "PL",
    "admin_name": "Lubelskie",
    "capital": "",
    "population": "30093",
    "population_proper": "30093"
  },
  {
    "label": "Giżycko",
    "lat": "54.0400",
    "lng": "21.7589",
    "country": "Poland",
    "iso2": "PL",
    "admin_name": "Warmińsko-Mazurskie",
    "capital": "minor",
    "population": "29642",
    "population_proper": "28233"
  },
  {
    "label": "Brodnica",
    "lat": "53.2597",
    "lng": "19.3956",
    "country": "Poland",
    "iso2": "PL",
    "admin_name": "Kujawsko-Pomorskie",
    "capital": "minor",
    "population": "28880",
    "population_proper": "28865"
  },
  {
    "label": "Kętrzyn",
    "lat": "54.0833",
    "lng": "21.3833",
    "country": "Poland",
    "iso2": "PL",
    "admin_name": "Warmińsko-Mazurskie",
    "capital": "minor",
    "population": "27827",
    "population_proper": "26174"
  },
  {
    "label": "Gorlice",
    "lat": "49.6547",
    "lng": "21.1597",
    "country": "Poland",
    "iso2": "PL",
    "admin_name": "Małopolskie",
    "capital": "minor",
    "population": "27357",
    "population_proper": "26405"
  },
  {
    "label": "Biłgoraj",
    "lat": "50.5500",
    "lng": "22.7333",
    "country": "Poland",
    "iso2": "PL",
    "admin_name": "Lubelskie",
    "capital": "minor",
    "population": "27290",
    "population_proper": "25459"
  },
  {
    "label": "Kobyłka",
    "lat": "52.3333",
    "lng": "21.2000",
    "country": "Poland",
    "iso2": "PL",
    "admin_name": "Mazowieckie",
    "capital": "",
    "population": "27185",
    "population_proper": "27185"
  },
  {
    "label": "Wągrowiec",
    "lat": "52.8000",
    "lng": "17.2000",
    "country": "Poland",
    "iso2": "PL",
    "admin_name": "Wielkopolskie",
    "capital": "minor",
    "population": "25773",
    "population_proper": "25773"
  },
  {
    "label": "Turek",
    "lat": "52.0167",
    "lng": "18.5000",
    "country": "Poland",
    "iso2": "PL",
    "admin_name": "Wielkopolskie",
    "capital": "minor",
    "population": "25376",
    "population_proper": "25376"
  },
  {
    "label": "Skawina",
    "lat": "49.9833",
    "lng": "19.8333",
    "country": "Poland",
    "iso2": "PL",
    "admin_name": "Małopolskie",
    "capital": "",
    "population": "24310",
    "population_proper": "24177"
  },
  {
    "label": "Kościan",
    "lat": "52.0833",
    "lng": "16.6500",
    "country": "Poland",
    "iso2": "PL",
    "admin_name": "Wielkopolskie",
    "capital": "minor",
    "population": "24086",
    "population_proper": "24022"
  },
  {
    "label": "Kościerzyna",
    "lat": "54.1167",
    "lng": "17.9833",
    "country": "Poland",
    "iso2": "PL",
    "admin_name": "Pomorskie",
    "capital": "minor",
    "population": "23744",
    "population_proper": "23723"
  },
  {
    "label": "Piastów",
    "lat": "52.1833",
    "lng": "20.8500",
    "country": "Poland",
    "iso2": "PL",
    "admin_name": "Mazowieckie",
    "capital": "",
    "population": "23281",
    "population_proper": "23281"
  },
  {
    "label": "Bartoszyce",
    "lat": "54.2500",
    "lng": "20.8000",
    "country": "Poland",
    "iso2": "PL",
    "admin_name": "Warmińsko-Mazurskie",
    "capital": "minor",
    "population": "22984",
    "population_proper": "22281"
  },
  {
    "label": "Szczytno",
    "lat": "53.5667",
    "lng": "20.9833",
    "country": "Poland",
    "iso2": "PL",
    "admin_name": "Warmińsko-Mazurskie",
    "capital": "minor",
    "population": "22813",
    "population_proper": "22389"
  },
  {
    "label": "Jawor",
    "lat": "51.0500",
    "lng": "16.2000",
    "country": "Poland",
    "iso2": "PL",
    "admin_name": "Dolnośląskie",
    "capital": "minor",
    "population": "22758",
    "population_proper": "21494"
  },
  {
    "label": "Lubartów",
    "lat": "51.4667",
    "lng": "22.6000",
    "country": "Poland",
    "iso2": "PL",
    "admin_name": "Lubelskie",
    "capital": "minor",
    "population": "22138",
    "population_proper": "20494"
  },
  {
    "label": "Grajewo",
    "lat": "53.6500",
    "lng": "22.4500",
    "country": "Poland",
    "iso2": "PL",
    "admin_name": "Podlaskie",
    "capital": "minor",
    "population": "21900",
    "population_proper": "21395"
  },
  {
    "label": "Płońsk",
    "lat": "52.6333",
    "lng": "20.3833",
    "country": "Poland",
    "iso2": "PL",
    "admin_name": "Mazowieckie",
    "capital": "minor",
    "population": "21800",
    "population_proper": "21800"
  },
  {
    "label": "Koło",
    "lat": "52.2000",
    "lng": "18.6333",
    "country": "Poland",
    "iso2": "PL",
    "admin_name": "Wielkopolskie",
    "capital": "minor",
    "population": "21686",
    "population_proper": "20380"
  },
  {
    "label": "Zambrów",
    "lat": "52.9833",
    "lng": "22.2500",
    "country": "Poland",
    "iso2": "PL",
    "admin_name": "Podlaskie",
    "capital": "minor",
    "population": "21351",
    "population_proper": "21351"
  },
  {
    "label": "Mrągowo",
    "lat": "53.8667",
    "lng": "21.3000",
    "country": "Poland",
    "iso2": "PL",
    "admin_name": "Warmińsko-Mazurskie",
    "capital": "minor",
    "population": "21325",
    "population_proper": "21325"
  },
  {
    "label": "Działdowo",
    "lat": "53.2333",
    "lng": "20.1833",
    "country": "Poland",
    "iso2": "PL",
    "admin_name": "Warmińsko-Mazurskie",
    "capital": "minor",
    "population": "21279",
    "population_proper": "20670"
  },
  {
    "label": "Sulejówek",
    "lat": "52.2442",
    "lng": "21.2800",
    "country": "Poland",
    "iso2": "PL",
    "admin_name": "Mazowieckie",
    "capital": "",
    "population": "21248",
    "population_proper": "21248"
  },
  {
    "label": "Chełmno",
    "lat": "53.3492",
    "lng": "18.4231",
    "country": "Poland",
    "iso2": "PL",
    "admin_name": "Kujawsko-Pomorskie",
    "capital": "minor",
    "population": "20428",
    "population_proper": "18837"
  },
  {
    "label": "Lubań",
    "lat": "51.1181",
    "lng": "15.2889",
    "country": "Poland",
    "iso2": "PL",
    "admin_name": "Dolnośląskie",
    "capital": "minor",
    "population": "20096",
    "population_proper": "20096"
  },
  {
    "label": "Chodzież",
    "lat": "52.9833",
    "lng": "16.9000",
    "country": "Poland",
    "iso2": "PL",
    "admin_name": "Wielkopolskie",
    "capital": "minor",
    "population": "19100",
    "population_proper": "18044"
  },
  {
    "label": "Złotów",
    "lat": "53.3603",
    "lng": "17.0408",
    "country": "Poland",
    "iso2": "PL",
    "admin_name": "Wielkopolskie",
    "capital": "minor",
    "population": "18768",
    "population_proper": "18768"
  },
  {
    "label": "Ozorków",
    "lat": "51.9667",
    "lng": "19.2833",
    "country": "Poland",
    "iso2": "PL",
    "admin_name": "Łódzkie",
    "capital": "",
    "population": "18721",
    "population_proper": "18721"
  },
  {
    "label": "Tomaszów Lubelski",
    "lat": "50.4500",
    "lng": "23.4167",
    "country": "Poland",
    "iso2": "PL",
    "admin_name": "Lubelskie",
    "capital": "minor",
    "population": "18567",
    "population_proper": "18567"
  },
  {
    "label": "Giszowiec",
    "lat": "50.2333",
    "lng": "19.0667",
    "country": "Poland",
    "iso2": "PL",
    "admin_name": "Śląskie",
    "capital": "",
    "population": "18475",
    "population_proper": "18475"
  },
  {
    "label": "Łomianki",
    "lat": "52.3333",
    "lng": "20.8833",
    "country": "Poland",
    "iso2": "PL",
    "admin_name": "Mazowieckie",
    "capital": "",
    "population": "18124",
    "population_proper": "18124"
  },
  {
    "label": "Jasien",
    "lat": "54.3399",
    "lng": "18.5600",
    "country": "Poland",
    "iso2": "PL",
    "admin_name": "Pomorskie",
    "capital": "",
    "population": "18014",
    "population_proper": "18014"
  },
  {
    "label": "Łańcut",
    "lat": "50.0667",
    "lng": "22.2333",
    "country": "Poland",
    "iso2": "PL",
    "admin_name": "Podkarpackie",
    "capital": "minor",
    "population": "17768",
    "population_proper": "17768"
  },
  {
    "label": "Rawa Mazowiecka",
    "lat": "51.7658",
    "lng": "20.2533",
    "country": "Poland",
    "iso2": "PL",
    "admin_name": "Łódzkie",
    "capital": "minor",
    "population": "17765",
    "population_proper": "16429"
  },
  {
    "label": "Braniewo",
    "lat": "54.3833",
    "lng": "19.8333",
    "country": "Poland",
    "iso2": "PL",
    "admin_name": "Warmińsko-Mazurskie",
    "capital": "minor",
    "population": "16992",
    "population_proper": "16480"
  },
  {
    "label": "Rypin",
    "lat": "53.0667",
    "lng": "19.4500",
    "country": "Poland",
    "iso2": "PL",
    "admin_name": "Kujawsko-Pomorskie",
    "capital": "minor",
    "population": "16558",
    "population_proper": "15832"
  },
  {
    "label": "Milanówek",
    "lat": "52.1333",
    "lng": "20.6833",
    "country": "Poland",
    "iso2": "PL",
    "admin_name": "Mazowieckie",
    "capital": "",
    "population": "16490",
    "population_proper": "16490"
  },
  {
    "label": "Złotoryja",
    "lat": "51.1333",
    "lng": "15.9167",
    "country": "Poland",
    "iso2": "PL",
    "admin_name": "Dolnośląskie",
    "capital": "minor",
    "population": "16479",
    "population_proper": "14656"
  },
  {
    "label": "Radzionków Nowy",
    "lat": "50.3833",
    "lng": "18.8833",
    "country": "Poland",
    "iso2": "PL",
    "admin_name": "Śląskie",
    "capital": "",
    "population": "16253",
    "population_proper": "16253"
  },
  {
    "label": "Osowa",
    "lat": "54.4272",
    "lng": "18.4708",
    "country": "Poland",
    "iso2": "PL",
    "admin_name": "Pomorskie",
    "capital": "",
    "population": "15843",
    "population_proper": "15843"
  },
  {
    "label": "Ustka",
    "lat": "54.5833",
    "lng": "16.8500",
    "country": "Poland",
    "iso2": "PL",
    "admin_name": "Pomorskie",
    "capital": "",
    "population": "15812",
    "population_proper": "14321"
  },
  {
    "label": "Łęczyca",
    "lat": "52.0500",
    "lng": "19.2000",
    "country": "Poland",
    "iso2": "PL",
    "admin_name": "Łódzkie",
    "capital": "minor",
    "population": "15593",
    "population_proper": "13587"
  },
  {
    "label": "Chełmża",
    "lat": "53.1847",
    "lng": "18.6042",
    "country": "Poland",
    "iso2": "PL",
    "admin_name": "Kujawsko-Pomorskie",
    "capital": "",
    "population": "14808",
    "population_proper": "14045"
  },
  {
    "label": "Biały Kamień",
    "lat": "50.7814",
    "lng": "16.2539",
    "country": "Poland",
    "iso2": "PL",
    "admin_name": "Dolnośląskie",
    "capital": "",
    "population": "14278",
    "population_proper": "14278"
  },
  {
    "label": "Chojnów",
    "lat": "51.2667",
    "lng": "15.9333",
    "country": "Poland",
    "iso2": "PL",
    "admin_name": "Dolnośląskie",
    "capital": "",
    "population": "13904",
    "population_proper": "12769"
  },
  {
    "label": "Człuchów",
    "lat": "53.6667",
    "lng": "17.3667",
    "country": "Poland",
    "iso2": "PL",
    "admin_name": "Pomorskie",
    "capital": "minor",
    "population": "13869",
    "population_proper": "13343"
  },
  {
    "label": "Lipno",
    "lat": "52.8500",
    "lng": "19.1667",
    "country": "Poland",
    "iso2": "PL",
    "admin_name": "Kujawsko-Pomorskie",
    "capital": "minor",
    "population": "13752",
    "population_proper": "13752"
  },
  {
    "label": "Słupca",
    "lat": "52.3000",
    "lng": "17.8667",
    "country": "Poland",
    "iso2": "PL",
    "admin_name": "Wielkopolskie",
    "capital": "minor",
    "population": "13353",
    "population_proper": "13353"
  },
  {
    "label": "Wąbrzeźno",
    "lat": "53.2833",
    "lng": "18.9500",
    "country": "Poland",
    "iso2": "PL",
    "admin_name": "Kujawsko-Pomorskie",
    "capital": "minor",
    "population": "13317",
    "population_proper": "13317"
  },
  {
    "label": "Sidlice",
    "lat": "54.3471",
    "lng": "18.6171",
    "country": "Poland",
    "iso2": "PL",
    "admin_name": "Pomorskie",
    "capital": "",
    "population": "12842",
    "population_proper": "12842"
  },
  {
    "label": "Golub-Dobrzyń",
    "lat": "53.1000",
    "lng": "19.0500",
    "country": "Poland",
    "iso2": "PL",
    "admin_name": "Kujawsko-Pomorskie",
    "capital": "minor",
    "population": "12546",
    "population_proper": "11722"
  },
  {
    "label": "Aleksandrów Kujawski",
    "lat": "52.8767",
    "lng": "18.6936",
    "country": "Poland",
    "iso2": "PL",
    "admin_name": "Kujawsko-Pomorskie",
    "capital": "minor",
    "population": "12359",
    "population_proper": "11719"
  },
  {
    "label": "Puck",
    "lat": "54.7000",
    "lng": "18.4000",
    "country": "Poland",
    "iso2": "PL",
    "admin_name": "Pomorskie",
    "capital": "minor",
    "population": "10868",
    "population_proper": "10868"
  },
  {
    "label": "Suchanino",
    "lat": "54.3566",
    "lng": "18.6056",
    "country": "Poland",
    "iso2": "PL",
    "admin_name": "Pomorskie",
    "capital": "",
    "population": "10392",
    "population_proper": "10392"
  },
  {
    "label": "Czarnków",
    "lat": "52.9000",
    "lng": "16.5667",
    "country": "Poland",
    "iso2": "PL",
    "admin_name": "Wielkopolskie",
    "capital": "minor",
    "population": "10370",
    "population_proper": "10370"
  },
  {
    "label": "Ksawerów",
    "lat": "51.6822",
    "lng": "19.4028",
    "country": "Poland",
    "iso2": "PL",
    "admin_name": "Łódzkie",
    "capital": "",
    "population": "6897",
    "population_proper": "6897"
  },
  {
    "label": "Wola Rzędzińska",
    "lat": "50.0500",
    "lng": "21.0833",
    "country": "Poland",
    "iso2": "PL",
    "admin_name": "Małopolskie",
    "capital": "",
    "population": "5869",
    "population_proper": "5869"
  },
  {
    "label": "Sejny",
    "lat": "54.1167",
    "lng": "23.3667",
    "country": "Poland",
    "iso2": "PL",
    "admin_name": "Podlaskie",
    "capital": "minor",
    "population": "5075",
    "population_proper": "5075"
  },
  {
    "label": "Raciąż",
    "lat": "52.7794",
    "lng": "20.1153",
    "country": "Poland",
    "iso2": "PL",
    "admin_name": "Mazowieckie",
    "capital": "",
    "population": "4585",
    "population_proper": "4146"
  },
  {
    "label": "Górowo Iławeckie",
    "lat": "54.2861",
    "lng": "20.4917",
    "country": "Poland",
    "iso2": "PL",
    "admin_name": "Warmińsko-Mazurskie",
    "capital": "",
    "population": "3797",
    "population_proper": "3797"
  },
  {
    "label": "Zgłobice",
    "lat": "49.9833",
    "lng": "20.9167",
    "country": "Poland",
    "iso2": "PL",
    "admin_name": "Małopolskie",
    "capital": "",
    "population": "3030",
    "population_proper": "3030"
  },
  {
    "label": "Libertów",
    "lat": "49.9724",
    "lng": "19.8946",
    "country": "Poland",
    "iso2": "PL",
    "admin_name": "Małopolskie",
    "capital": "",
    "population": "3029",
    "population_proper": "3029"
  },
  {
    "label": "Zbylitowska Góra",
    "lat": "49.9833",
    "lng": "20.9167",
    "country": "Poland",
    "iso2": "PL",
    "admin_name": "Małopolskie",
    "capital": "",
    "population": "2695",
    "population_proper": "2695"
  },
  {
    "label": "Wiśniowa Góra",
    "lat": "51.7167",
    "lng": "19.6333",
    "country": "Poland",
    "iso2": "PL",
    "admin_name": "Łódzkie",
    "capital": "",
    "population": "2569",
    "population_proper": "2569"
  },
  {
    "label": "Koszyce",
    "lat": "49.9689",
    "lng": "20.9475",
    "country": "Poland",
    "iso2": "PL",
    "admin_name": "Małopolskie",
    "capital": "",
    "population": "2207",
    "population_proper": "2207"
  },
  {
    "label": "Latoszyn",
    "lat": "50.0297",
    "lng": "21.3834",
    "country": "Poland",
    "iso2": "PL",
    "admin_name": "Podkarpackie",
    "capital": "",
    "population": "1560",
    "population_proper": "1560"
  },
  {
    "label": "Jodłówka",
    "lat": "50.0499",
    "lng": "21.1333",
    "country": "Poland",
    "iso2": "PL",
    "admin_name": "Małopolskie",
    "capital": "",
    "population": "1282",
    "population_proper": "1282"
  }
]
